[
{  
    "id": "1",
    "category": "Πανεπιστήμιο", 
    "name": "Πανεπιστημιούπολη Θετικών Επιστημών Πανεπιστήμιου Θεσσαλίας (Λαμία) (Πρώην ΤΕΙ)", 
    "longitude": 22.437631523099753, 
    "latitude": 38.875148566591896 
},  
    
{    
    "id": "2",
    "category": "Πανεπιστήμιο", 
    "name": "Πανεπιστήμιο Θεσσαλίας", 
    "longitude": 22.428074710625015, 
    "latitude": 38.912373726075387 
},  
    
{    
    "id": "3",
    "category": "Πανεπιστήμιο", 
    "name": "Αριστοτέλειο Πανεπιστήμιο", 
    "longitude": 22.959177805409787, 
    "latitude": 40.629756125845738 
},  
    
{    
    "id": "4",
    "category": "Πανεπιστήμιο", 
    "name": "Πανεπιστήμιο Μακεδονίας", 
    "longitude": 22.959985660368723, 
    "latitude": 40.625272154204495 
},  
    
{    
    "id": "5",
    "category": "Πανεπιστήμιο", 
    "name": "Στρατιωτική Σχολή Αξιωματικών Σωμάτων", 
    "longitude": 22.962608085499863, 
    "latitude": 40.624652555233524 
},  
    
{    
    "id": "6",
    "category": "Πανεπιστήμιο", 
    "name": "Σχολή Καλών Τεχνών ΑΠΘ", 
    "longitude": 23.001074594186317, 
    "latitude": 40.565465276738479 
},  
    
{    
    "id": "7",
    "category": "Πανεπιστήμιο", 
    "name": "Τμήμα Δημοσιογραφίας ΑΠΘ", 
    "longitude": 22.940366895815714, 
    "latitude": 40.637626969212725 
},  
    
{    
    "id": "8",
    "category": "Πανεπιστήμιο", 
    "name": "Κτηνιατρική Σχολή Αριστοτέλειου Πανεπιστήμιου Θεσσαλονίκης", 
    "longitude": 22.92532510973361, 
    "latitude": 40.643591710545941 
},  
    
{    
    "id": "9",
    "category": "Πανεπιστήμιο", 
    "name": "Τμήμα Δασολογίας & Φυσικού Περιβάλλοντος", 
    "longitude": 22.970562749074642, 
    "latitude": 40.566753594165291 
},  
    
{    
    "id": "10",
    "category": "Πανεπιστήμιο", 
    "name": "Διεθνές Πανεπιστήμιο Ελλάδος - Αλεξάνδρεια Πανεπιστημιούπολη", 
    "longitude": 22.811851482247953, 
    "latitude": 40.656812466515831 
},  
    
{    
    "id": "11",
    "category": "Πανεπιστήμιο", 
    "name": "Σχολή Καλών Τεχνών ΑΠΘ", 
    "longitude": 22.927929928364122, 
    "latitude": 40.658242881715594 
},  
    
{    
    "id": "12",
    "category": "Πανεπιστήμιο", 
    "name": "International Hellenic Πανεπιστήμιο", 
    "longitude": 23.008795223027725, 
    "latitude": 40.536998147427845 
},  
    
{    
    "id": "13",
    "category": "Πανεπιστήμιο", 
    "name": "Τμήμα Μουσικών Σπουδών", 
    "longitude": 23.0014873, 
    "latitude": 40.56484 
},  
    
{    
    "id": "14",
    "category": "Κολλέγιο", 
    "name": "ACT", 
    "longitude": 23.002900391892233, 
    "latitude": 40.600062640985108 
},  
    
{    
    "id": "15",
    "category": "Κολλέγιο", 
    "name": "Πυροσβεστική Ακαδημία - Σχολή Πυροσβεστών", 
    "longitude": 22.81699415, 
    "latitude": 40.6826014 
},  
    
{    
    "id": "16",
    "category": "Κολλέγιο", 
    "name": "AAS Κολλέγιο - School of Art & Design", 
    "longitude": 22.931317464517125, 
    "latitude": 40.705984232952865 
},  
    
{    
    "id": "17",
    "category": "Κολλέγιο", 
    "name": "Ελληνικό Κολλέγιο Θεσσαλονίκης", 
    "longitude": 23.009904654764785, 
    "latitude": 40.561959817276126 
},  
    
{    
    "id": "18",
    "category": "Κολλέγιο", 
    "name": null, 
    "longitude": 23.006647500281964, 
    "latitude": 40.56085937814899 
},  
    
{    
    "id": "19",
    "category": "Κολλέγιο", 
    "name": "Αμερικανική Γεωργική Σχολή", 
    "longitude": 22.9882969, 
    "latitude": 40.5716758 
},  
    
{    
    "id": "20",
    "category": "Κολλέγιο", 
    "name": "Σχολή Αεροσυνοδών ΙΑΤΑ Airline Training Center Greece", 
    "longitude": 22.9383862, 
    "latitude": 40.6333841 
},  
    
{    
    "id": "21",
    "category": "Κολλέγιο", 
    "name": "DEI Κολλέγιο", 
    "longitude": 22.9505315, 
    "latitude": 40.6283167 
}
]
    
